{
    "branches": [
        {
            "id": 120501,
            "pronvice": "广东",
            "city": "广州市",
            "area": "天河区",
            "short_name": "天河",
            "full_name": "天河支行",
            "weekend": "周日",
            "telphone": "020-38922724",
            "address": "天河区体育西路191号中石化大厦首层",
            "lng": "113.327019",
            "lat": "23.146184"
        },
        {
            "id": 120502,
            "pronvice": "广东",
            "city": "广州市",
            "area": "荔湾区",
            "short_name": "人民中",
            "full_name": "人民中路支行",
            "weekend": "周日",
            "telphone": "020-81305690",
            "address": "荔湾区人民中路555号美国银行中心首层",
            "lng": "113.260228",
            "lat": "23.129167"
        },
        {
            "id": 120503,
            "pronvice": "广东",
            "city": "广州市",
            "area": "越秀区",
            "short_name": "五羊",
            "full_name": "五羊支行",
            "weekend": "周六",
            "telphone": "020-87364605",
            "address": "越秀区五羊新城寺右南一街一巷8号",
            "lng": "113.317770",
            "lat": "23.125082"
        },
        {
            "id": 120504,
            "pronvice": "广东",
            "city": "广州市",
            "area": "越秀区",
            "short_name": "白云",
            "full_name": "白云路支行",
            "weekend": "周六",
            "telphone": "020-83730717",
            "address": "越秀区白云路27号广东交通大厦首层",
            "lng": "113.287934",
            "lat": "23.123700"
        },
        {
            "id": 120505,
            "pronvice": "广东",
            "city": "广州市",
            "area": "越秀区",
            "short_name": "环市东",
            "full_name": "环市东路支行",
            "weekend": "周六",
            "telphone": "020-87679709",
            "address": "越秀区天河路3号锦绣联合商务大厦2楼",
            "lng": "113.316923",
            "lat": "23.140736"
        },
        {
            "id": 120506,
            "pronvice": "广东",
            "city": "广州市",
            "area": "海珠区",
            "short_name": "海珠",
            "full_name": "海珠支行",
            "weekend": "周六",
            "telphone": "020-84481853",
            "address": "海珠区江南西路63号首层",
            "lng": "113.276584",
            "lat": "23.100546"
        },
        {
            "id": 120507,
            "pronvice": "广东",
            "city": "广州市",
            "area": "越秀区",
            "short_name": "中环",
            "full_name": "中环广场支行",
            "weekend": "周六",
            "telphone": "020-35919614",
            "address": "越秀区环市东路334号市政中环大厦7楼",
            "lng": "113.288342",
            "lat": "23.143859"
        },
        {
            "id": 120508,
            "pronvice": "广东",
            "city": "广州市",
            "area": "天河区",
            "short_name": "体育东",
            "full_name": "体育东路支行",
            "weekend": "周六",
            "telphone": "020-38261388",
            "address": "天河区体育东路138号金利来大厦首层",
            "lng": "113.335339",
            "lat": "23.144094"
        },
        {
            "id": 120509,
            "pronvice": "广东",
            "city": "广州市",
            "area": "越秀区",
            "short_name": "东风",
            "full_name": "东风支行",
            "weekend": "周日",
            "telphone": "020-83486097",
            "address": "越秀区东风中路418号华以泰国际写字楼首层",
            "lng": "113.279100",
            "lat": "23.137018"
        },
        {
            "id": 120510,
            "pronvice": "广东",
            "city": "广州市",
            "area": "天河区",
            "short_name": "林和",
            "full_name": "林和路支行",
            "weekend": "周日",
            "telphone": "020-38240219",
            "address": "天河区林和街27号中怡城市花园A栋自编103",
            "lng": "113.333297",
            "lat": "23.148805"
        },
        {
            "id": 120511,
            "pronvice": "广东",
            "city": "广州市",
            "area": "越秀区",
            "short_name": "淘金",
            "full_name": "淘金支行",
            "weekend": "周六",
            "telphone": "020-83597943",
            "address": "越秀区淘金路50号首层",
            "lng": "113.294370",
            "lat": "23.144169"
        },
        {
            "id": 120513,
            "pronvice": "广东",
            "city": "广州市",
            "area": "越秀区",
            "short_name": "越秀",
            "full_name": "越秀支行",
            "weekend": "周六",
            "telphone": "020-83278201",
            "address": "越秀区中山五路219号中旅商业城负一层",
            "lng": "113.269734",
            "lat": "23.131330"
        },
        {
            "id": 120516,
            "pronvice": "广东",
            "city": "广州市",
            "area": "越秀区",
            "short_name": "东山",
            "full_name": "东山支行",
            "weekend": "周六",
            "telphone": "020-83635415",
            "address": "越秀区中山四路246号信德商务大厦首层、二层",
            "lng": "113.278002",
            "lat": "23.132304"
        },
        {
            "id": 120518,
            "pronvice": "广东",
            "city": "广州市",
            "area": "白云区",
            "short_name": "机场",
            "full_name": "机场路支行",
            "weekend": "周日",
            "telphone": "020-28230670",
            "address": "白云区机场路585号鹏景大厦首层、二楼、四楼",
            "lng": "113.265911",
            "lat": "23.180614"
        },
        {
            "id": 120519,
            "pronvice": "广东",
            "city": "广州市",
            "area": "天河区",
            "short_name": "高新",
            "full_name": "高新支行",
            "weekend": "周六",
            "telphone": "020-22891967",
            "address": "天河区华景路1号广东南方通信大厦首层西南侧",
            "lng": "113.364044",
            "lat": "23.140662"
        },
        {
            "id": 120520,
            "pronvice": "广东",
            "city": "广州市",
            "area": "天河区",
            "short_name": "珠江",
            "full_name": "珠江新城支行",
            "weekend": "周六",
            "telphone": "020-38035086",
            "address": "天河区珠江新城大道84号优托邦1座一楼",
            "lng": "113.335894",
            "lat": "23.123985"
        },
        {
            "id": 120521,
            "pronvice": "广东",
            "city": "广州市",
            "area": "黄埔区",
            "short_name": "开发区",
            "full_name": "开发区支行",
            "weekend": "不营业",
            "telphone": "020-82118945",
            "address": "萝岗区科学大道286号",
            "lng": "113.464693",
            "lat": "23.174119"
        },
        {
            "id": 120522,
            "pronvice": "广东",
            "city": "广州市",
            "area": "天河区",
            "short_name": "龙口",
            "full_name": "龙口支行",
            "weekend": "周六",
            "telphone": "020-38462241",
            "address": "天河区天河北路575号芳草园首层",
            "lng": "113.343993",
            "lat": "23.147360"
        },
        {
            "id": 120523,
            "pronvice": "广东",
            "city": "广州市",
            "area": "花都区",
            "short_name": "风神",
            "full_name": "风神支行",
            "weekend": "周日",
            "telphone": "020-86872880",
            "address": "花都区风神大道8号风神商业中心A栋104号",
            "lng": "113.175876",
            "lat": "23.385989"
        },
        {
            "id": 120524,
            "pronvice": "广东",
            "city": "广州市",
            "area": "番禺区",
            "short_name": "雅居乐",
            "full_name": "雅居乐支行",
            "weekend": "周日",
            "telphone": "020-29020755",
            "address": "番禺区南村镇广州雅居乐花园公建5号首层A ",
            "lng": "113.367788",
            "lat": "23.016008"
        },
        {
            "id": 120525,
            "pronvice": "广东",
            "city": "广州市",
            "area": "天河区",
            "short_name": "体育西",
            "full_name": "体育西路支行",
            "weekend": "周六",
            "telphone": "020-38785152",
            "address": "天河区体育西路101号维多利广场",
            "lng": "113.327562",
            "lat": "23.140938"
        },
        {
            "id": 120526,
            "pronvice": "广东",
            "city": "广州市",
            "area": "荔湾区",
            "short_name": "荔湾",
            "full_name": "荔湾支行",
            "weekend": "周六",
            "telphone": "020-81234827",
            "address": "广州市中山八路21号富力商贸大厦首层",
            "lng": "113.246813",
            "lat": "23.131200"
        },
        {
            "id": 120527,
            "pronvice": "广东",
            "city": "广州市",
            "area": "天河区",
            "short_name": "华强",
            "full_name": "华强路支行",
            "weekend": "周末不营业",
            "telphone": "020-85219675",
            "address": "天河区华强路9号保利克洛维保利中盈大厦106、204号铺",
            "lng": "113.326316",
            "lat": "23.132013"
        },
        {
            "id": 120528,
            "pronvice": "广东",
            "city": "广州市",
            "area": "天河区",
            "short_name": "花城",
            "full_name": "花城支行",
            "weekend": "周六",
            "telphone": "020-22827711",
            "address": "天河区珠江新城海明路华府街19号金碧华府南门",
            "lng": "113.348694",
            "lat": "23.121839"
        },
        {
            "id": 120529,
            "pronvice": "广东",
            "city": "广州市",
            "area": "越秀区",
            "short_name": "中山二",
            "full_name": "中山二路支行",
            "weekend": "周日",
            "telphone": "020-88888881",
            "address": "越秀区中山二路18号广东电信广场首层",
            "lng": "113.300563",
            "lat": "23.130771"
        },
        {
            "id": 120530,
            "pronvice": "广东",
            "city": "广州市",
            "area": "南沙区",
            "short_name": "南沙分营",
            "full_name": "南沙分营",
            "weekend": "周六",
            "telphone": "020-84970767",
            "address": "南沙区进港大道22号金莎广场首层",
            "lng": "113.551611",
            "lat": "22.806065"
        },
        {
            "id": 120531,
            "pronvice": "广东",
            "city": "广州市",
            "area": "天河区",
            "short_name": "黄埔",
            "full_name": "黄埔大道支行",
            "weekend": "周日",
            "telphone": "020-37884346",
            "address": "天河区黄埔大道西666号中国联通新时空广场首层",
            "lng": "113.351518",
            "lat": "23.131358"
        },
        {
            "id": 120532,
            "pronvice": "广东",
            "city": "广州市",
            "area": "天河区",
            "short_name": "金穗",
            "full_name": "金穗支行",
            "weekend": "周六",
            "telphone": "020-38293772",
            "address": "天河区珠江新城金穗路6号星汇国际大厦首层",
            "lng": "113.323437",
            "lat": "23.129538"
        },
        {
            "id": 120533,
            "pronvice": "广东",
            "city": "广州市",
            "area": "天河区",
            "short_name": "科技园",
            "full_name": "科技园支行",
            "weekend": "周六",
            "telphone": "020-85553127",
            "address": "天河区科韵路16号信息港大厦一楼",
            "lng": "113.380458",
            "lat": "23.131949"
        },
        {
            "id": 120534,
            "pronvice": "广东",
            "city": "广州市",
            "area": "从化区",
            "short_name": "从化",
            "full_name": "从化支行",
            "weekend": "周六",
            "telphone": "020-87895555",
            "address": "从化区江埔街从城大道",
            "lng": "113.596092",
            "lat": "23.539950"
        },
        {
            "id": 120535,
            "pronvice": "广东",
            "city": "广州市",
            "area": "天河区",
            "short_name": "天府",
            "full_name": "天府路支行",
            "weekend": "周六",
            "telphone": "020-87539758",
            "address": "天河区天府路161号首层",
            "lng": "113.368784",
            "lat": "23.137189"
        },
        {
            "id": 120536,
            "pronvice": "广东",
            "city": "广州市",
            "area": "天河区",
            "short_name": "丰兴",
            "full_name": "丰兴支行",
            "weekend": "周六",
            "telphone": "020-87517023",
            "address": "天河区天河路240号之一",
            "lng": "113.339943",
            "lat": "23.138530"
        },
        {
            "id": 120537,
            "pronvice": "广东",
            "city": "广州市",
            "area": "白云区",
            "short_name": "同和",
            "full_name": "同和支行",
            "weekend": "周六",
            "telphone": "020-36562008",
            "address": "白云区广州大道北1521号",
            "lng": "113.332253",
            "lat": "23.191073"
        },
        {
            "id": 120538,
            "pronvice": "广东",
            "city": "广州市",
            "area": "天河区",
            "short_name": "天润",
            "full_name": "天润路支行",
            "weekend": "周日",
            "telphone": "020-38109977",
            "address": "天河区石牌街天润路96号",
            "lng": "113.344409",
            "lat": "23.148835"
        },
        {
            "id": 120539,
            "pronvice": "广东",
            "city": "广州市",
            "area": "天河区",
            "short_name": "盈隆",
            "full_name": "盈隆广场支行",
            "weekend": "周六",
            "telphone": "020-85160638",
            "address": "天河区黄埔大道西76号富力盈隆广场支行",
            "lng": "113.332963",
            "lat": "23.132580"
        },
        {
            "id": 120541,
            "pronvice": "广东",
            "city": "广州市",
            "area": "越秀区",
            "short_name": "锦城",
            "full_name": "锦城大厦支行",
            "weekend": "周日",
            "telphone": "020-87347705",
            "address": "越秀区东风东路850号锦城大厦首层",
            "lng": "113.315757",
            "lat": "23.137586"
        },
        {
            "id": 120542,
            "pronvice": "广东",
            "city": "广州市",
            "area": "天河区",
            "short_name": "富力",
            "full_name": "富力中心支行",
            "weekend": "不营业",
            "telphone": "020-38927172",
            "address": "天河区珠江新城华夏路10号富力中心一楼",
            "lng": "113.328012",
            "lat": "23.123128"
        },
        {
            "id": 120543,
            "pronvice": "广东",
            "city": "广州市",
            "area": "海珠区",
            "short_name": "滨江东",
            "full_name": "滨江东支行",
            "weekend": "周日",
            "telphone": "020-34045221",
            "address": "海珠区滨江东路586号",
            "lng": "113.311464",
            "lat": "23.108566"
        },
        {
            "id": 120545,
            "pronvice": "广东",
            "city": "广州市",
            "area": "增城区",
            "short_name": "凤凰城",
            "full_name": "凤凰城支行",
            "weekend": "周六",
            "telphone": "020-82452016",
            "address": "增城区新塘碧桂园凤凰城广场大街238号",
            "lng": "113.584219",
            "lat": "23.134038"
        },
        {
            "id": 120546,
            "pronvice": "广东",
            "city": "广州市",
            "area": "天河区",
            "short_name": "远洋",
            "full_name": "远洋大厦支行",
            "weekend": "周六",
            "telphone": "020-85607296",
            "address": "天河区珠江新城花城大道20号远洋大厦首层101",
            "lng": "113.324799",
            "lat": "23.124889"
        },
        {
            "id": 120547,
            "pronvice": "广东",
            "city": "广州市",
            "area": "天河区",
            "short_name": "骏景",
            "full_name": "骏景广场支行",
            "weekend": "周日",
            "telphone": "020-37252424",
            "address": "天河区中山大道西1138号合生骏景广场",
            "lng": "113.388801",
            "lat": "23.131238"
        },
        {
            "id": 120548,
            "pronvice": "广东",
            "city": "广州市",
            "area": "越秀区",
            "short_name": "南报",
            "full_name": "南方报业支行",
            "weekend": "周日",
            "telphone": "020-37682196",
            "address": "越秀区广州大道中289号南方传媒大厦B栋101",
            "lng": "113.321279",
            "lat": "23.128192"
        },
        {
            "id": 120552,
            "pronvice": "广东",
            "city": "广州市",
            "area": "花都区",
            "short_name": "花都",
            "full_name": "花都支行",
            "weekend": "周六",
            "telphone": "020-37703669",
            "address": "花都区新华紫薇路29号威得利酒店首层",
            "lng": "113.222602",
            "lat": "23.411700"
        },
        {
            "id": 120553,
            "pronvice": "广东",
            "city": "广州市",
            "area": "天河区",
            "short_name": "汇景",
            "full_name": "汇景新城支行",
            "weekend": "周日",
            "telphone": "020-85502251",
            "address": "天河区汇景新城汇景南路67号",
            "lng": "113.374108",
            "lat": "23.155085"
        },
        {
            "id": 120554,
            "pronvice": "广东",
            "city": "广州市",
            "area": "黄埔区",
            "short_name": "科学城",
            "full_name": "科学城支行",
            "weekend": "周六",
            "telphone": "020-82069932",
            "address": "黄埔区伴河路136号百达丰广场",
            "lng": "113.516102",
            "lat": "23.161636"
        },
        {
            "id": 120555,
            "pronvice": "广东",
            "city": "广州市",
            "area": "番禺区",
            "short_name": "华碧",
            "full_name": "华南碧桂园支行",
            "weekend": "周六",
            "telphone": "020-29025970",
            "address": "番禺区南村镇华南碧桂园商业一街56号首层及五层",
            "lng": "113.356899",
            "lat": "23.000979"
        },
        {
            "id": 120556,
            "pronvice": "广东",
            "city": "广州市",
            "area": "海珠区",
            "short_name": "光大",
            "full_name": "光大花园支行",
            "weekend": "周日",
            "telphone": "020-34217199",
            "address": "海珠区革新路221号105铺及223号104号商铺",
            "lng": "113.262279",
            "lat": "23.090787"
        },
        {
            "id": 120557,
            "pronvice": "广东",
            "city": "广州市",
            "area": "番禺区",
            "short_name": "星河湾",
            "full_name": "星河湾支行",
            "weekend": "周日",
            "telphone": "020-84783337",
            "address": "番禺区南村镇番禺大道北1号星河湾酒店自编101号",
            "lng": "113.344204",
            "lat": "23.032829"
        },
        {
            "id": 120558,
            "pronvice": "广东",
            "city": "广州市",
            "area": "越秀区",
            "short_name": "署前",
            "full_name": "署前路支行",
            "weekend": "周六",
            "telphone": "020-31651662",
            "address": "越秀区署前一横路1号101房自编01商铺",
            "lng": "113.301618",
            "lat": "23.128785"
        },
        {
            "id": 120560,
            "pronvice": "广东",
            "city": "广州市",
            "area": "番禺区",
            "short_name": "番禺",
            "full_name": "番禺支行",
            "weekend": "周日",
            "telphone": "020-84823177",
            "address": "番禺区市桥禺山大道金城大厦首层2-24号",
            "lng": "113.372033",
            "lat": "22.946294"
        },
        {
            "id": 120561,
            "pronvice": "广东",
            "city": "广州市",
            "area": "番禺区",
            "short_name": "奥园",
            "full_name": "奥园广场支行",
            "weekend": "周六",
            "telphone": "020-34629178",
            "address": "番禺区市桥桥南街南华路293号奥园广场北门",
            "lng": "113.365298",
            "lat": "22.930420"
        },
        {
            "id": 120562,
            "pronvice": "广东",
            "city": "广州市",
            "area": "海珠区",
            "short_name": "金碧",
            "full_name": "金碧花园支行",
            "weekend": "周六",
            "telphone": "020-84121828",
            "address": "海珠区金碧一街76号首层自编B18、B19-1、B19-2号商铺",
            "lng": "113.294215",
            "lat": "23.073737"
        },
        {
            "id": 120563,
            "pronvice": "广东",
            "city": "广州市",
            "area": "番禺区",
            "short_name": "天安",
            "full_name": "天安支行",
            "weekend": "不营业",
            "telphone": "020-39388086",
            "address": "番禺区番禺大道北555号天安科技园创新大厦101单元",
            "lng": "113.373670",
            "lat": "22.985258"
        },
        {
            "id": 120566,
            "pronvice": "广东",
            "city": "广州市",
            "area": "天河区",
            "short_name": "广州分营",
            "full_name": "广州分行营业部",
            "weekend": "周日",
            "telphone": "020-38999789",
            "address": "天河区珠江新城华穗路5号招银大厦",
            "lng": "113.324544",
            "lat": "23.121732"
        },
        {
            "id": 120567,
            "pronvice": "广东",
            "city": "广州市",
            "area": "海珠区",
            "short_name": "赤岗北",
            "full_name": "赤岗北路支行",
            "weekend": "周六",
            "telphone": "020-34476737",
            "address": "海珠区赤岗北路6号瑞福大厦广场首层自编1-4号 ",
            "lng": "113.334243",
            "lat": "23.102905"
        },
        {
            "id": 120569,
            "pronvice": "广东",
            "city": "广州市",
            "area": "海珠区",
            "short_name": "合生",
            "full_name": "合生广场支行",
            "weekend": "周六",
            "telphone": "020-89446204",
            "address": "海珠区叠景路227号",
            "lng": "113.320748",
            "lat": "23.091704"
        },
        {
            "id": 120570,
            "pronvice": "广东",
            "city": "广州市",
            "area": "增城区",
            "short_name": "增城",
            "full_name": "增城支行",
            "weekend": "周日",
            "telphone": "020-82747888",
            "address": "增城区荔城街荔乡路83号阳光大厦",
            "lng": "113.826418",
            "lat": "23.283568"
        },
        {
            "id": 120571,
            "pronvice": "广东",
            "city": "广州市",
            "area": "海珠区",
            "short_name": "琶洲",
            "full_name": "琶洲支行",
            "weekend": "不营业",
            "telphone": "020-89118901",
            "address": "海珠区宸悦路26号(G-2栋)101房、201房自编1号",
            "lng": "113.390641",
            "lat": "23.108319"
        },
        {
            "id": 120572,
            "pronvice": "广东",
            "city": "广州市",
            "area": "增城区",
            "short_name": "新塘",
            "full_name": "新塘支行",
            "weekend": "周日",
            "telphone": "020-82700026",
            "address": "增城区新塘镇荔新路与广深路交汇处聚福酒店首层",
            "lng": "113.619600",
            "lat": "23.128337"
        },
        {
            "id": 120573,
            "pronvice": "广东",
            "city": "广州市",
            "area": "番禺区",
            "short_name": "祈福",
            "full_name": "祈福支行",
            "weekend": "周六",
            "telphone": "020-39186601",
            "address": "番禺区钟村街晋福路88、90、92、94号",
            "lng": "113.327416",
            "lat": "22.969796"
        },
        {
            "id": 759520,
            "pronvice": "广东",
            "city": "湛江市",
            "area": "湛江市",
            "short_name": "湛江分营",
            "full_name": "湛江分行营业部",
            "weekend": "周六",
            "telphone": "0759-2290229",
            "address": "湛江市开发区乐山东路35号银隆广场1楼",
            "lng": "110.400599",
            "lat": "21.238560"
        },
        {
            "id": 763520,
            "pronvice": "广东",
            "city": "清远市",
            "area": "清远市",
            "short_name": "清远分营",
            "full_name": "清远分行",
            "weekend": "周日",
            "telphone": "0763-3695555",
            "address": "清远市新城东12号区静福路6号维港半岛花园首二层",
            "lng": "113.071830",
            "lat": "23.686582"
        },
        {
            "id": 763521,
            "pronvice": "广东",
            "city": "清远市",
            "area": "清远市",
            "short_name": "清远锦绣",
            "full_name": "清远锦绣路支行",
            "weekend": "周日,周日每双周营业一次",
            "telphone": "0763-3366331",
            "address": "清远市清城区锦绣路6号东城汇丰花园1座首层商业04、05号",
            "lng": "113.065013",
            "lat": "23.714654"
        }
    ]
}