[{"name": "\u9ede\u90fd\u5fb7(\u8354\u7ea2\u697c\u5e97)", "location": {"lat": 23.12372, "lng": 113.237874}, "address": "\u5e7f\u4e1c\u7701\u5e7f\u5dde\u5e02\u8354\u6e7e\u533a\u9ec4\u6c99\u5927\u9053144\u53f7", "province": "\u5e7f\u4e1c\u7701", "city": "\u5e7f\u5dde\u5e02", "area": "\u8354\u6e7e\u533a", "street_id": "2b730b48b9adb0f54002453d", "telephone": "19866062889", "detail": 1, "uid": "2b730b48b9adb0f54002453d"}, {"name": "\u70b9\u90fd\u5fb7(\u91d1\u6ee1\u697c)", "location": {"lat": 23.206295, "lng": 113.249196}, "address": "\u5e7f\u5dde\u5e02\u767d\u4e91\u533a\u77f3\u69ce\u8def32\u53f7B\u680b301\u623f", "province": "\u5e7f\u4e1c\u7701", "city": "\u5e7f\u5dde\u5e02", "area": "\u767d\u4e91\u533a", "street_id": "edd4ef9d2d52b81f1ce999b6", "telephone": "(020)36677061", "detail": 1, "uid": "edd4ef9d2d52b81f1ce999b6"}, {"name": "\u70b9\u90fd\u5fb7(\u5317\u4eac\u8def\u5e97)", "location": {"lat": 23.133003, "lng": 113.27529}, "address": "\u5e7f\u4e1c\u7701\u5e7f\u5dde\u5e02\u8d8a\u79c0\u533a\u5317\u4eac\u8def352\u53f7", "province": "\u5e7f\u4e1c\u7701", "city": "\u5e7f\u5dde\u5e02", "area": "\u8d8a\u79c0\u533a", "telephone": "(020)83522927", "detail": 1, "uid": "9e003c90ce6360f73f9a5eaf"}, {"name": "\u70b9\u90fd\u5fb7(\u5927\u8336\u697c\u5e97)", "location": {"lat": 23.129399, "lng": 113.252789}, "address": "\u5e7f\u5dde\u5e02\u8354\u6e7e\u533a\u9f99\u6d25\u4e2d\u8def587\u53f7", "province": "\u5e7f\u4e1c\u7701", "city": "\u5e7f\u5dde\u5e02", "area": "\u8354\u6e7e\u533a", "street_id": "4fce73a5a8d8f57b5b1093d2", "telephone": "(020)81700813,18818398903", "detail": 1, "uid": "4fce73a5a8d8f57b5b1093d2"}, {"name": "\u70b9\u90fd\u5fb7(\u6865\u9a8f\u548c\u697c\u5e97)", "location": {"lat": 22.956298, "lng": 113.366901}, "address": "\u5e7f\u5dde\u5e02\u756a\u79ba\u533a\u5e02\u6865\u8857\u6377\u8fdb\u4e8c\u8def1\u53f7\u4e09\u697c", "province": "\u5e7f\u4e1c\u7701", "city": "\u5e7f\u5dde\u5e02", "area": "\u756a\u79ba\u533a", "street_id": "5af7bc8ca4e81b758f55ec70", "telephone": "(020)31147068,13662526193", "detail": 1, "uid": "5af7bc8ca4e81b758f55ec70"}, {"name": "\u70b9\u90fd\u5fb7(\u4e2d\u5c71\u56db\u8def\u5e97)", "location": {"lat": 23.132563, "lng": 113.277738}, "address": "\u5e7f\u4e1c\u7701\u5e7f\u5dde\u5e02\u8d8a\u79c0\u533a\u4e2d\u5c71\u56db\u8def246\u53f7", "province": "\u5e7f\u4e1c\u7701", "city": "\u5e7f\u5dde\u5e02", "area": "\u8d8a\u79c0\u533a", "street_id": "85ccb694fa53c244b7265539", "telephone": "(020)87708336", "detail": 1, "uid": "85ccb694fa53c244b7265539"}, {"name": "\u70b9\u90fd\u5fb7(\u559c\u7ca4\u697c\u5e97)", "location": {"lat": 23.133694, "lng": 113.314745}, "address": "\u5e7f\u5dde\u5e02\u8d8a\u79c0\u533a\u4e2d\u5c71\u4e00\u8def\u4e0e\u6885\u4e1c\u8def\u4ea4\u53c9\u8def\u53e3\u4e1c\u4fa7(\u5357\u65b9\u94c1\u9053\u5927\u53a6)", "province": "\u5e7f\u4e1c\u7701", "city": "\u5e7f\u5dde\u5e02", "area": "\u8d8a\u79c0\u533a", "street_id": "130c1ac1f43189cc4c3a596a", "telephone": "(020)87380723,17875576720", "detail": 1, "uid": "130c1ac1f43189cc4c3a596a"}, {"name": "\u70b9\u90fd\u5fb7(\u91d1\u6c99\u6d32\u5e97)", "location": {"lat": 23.160905, "lng": 113.218314}, "address": "\u5e7f\u4e1c\u7701\u5e7f\u5dde\u5e02\u767d\u4e91\u533a\u76c8\u6c34\u88571\u53f7(\u91d1\u57df\u84dd\u6e7e\u4e1c\u95e8)", "province": "\u5e7f\u4e1c\u7701", "city": "\u5e7f\u5dde\u5e02", "area": "\u767d\u4e91\u533a", "telephone": "18802013589,(020)87028101", "detail": 1, "uid": "10245bf63ebb55abb75f1e29"}, {"name": "\u70b9\u90fd\u5fb7(\u805a\u798f\u697c\u5e97)", "location": {"lat": 23.126723, "lng": 113.271832}, "address": "\u5e7f\u5dde\u5e02\u8d8a\u79c0\u533a\u60e0\u798f\u4e1c\u8def470\u53f7", "province": "\u5e7f\u4e1c\u7701", "city": "\u5e7f\u5dde\u5e02", "area": "\u8d8a\u79c0\u533a", "street_id": "c3cd388c1c24bcc8c61e51bd", "telephone": "13632423292", "detail": 1, "uid": "c3cd388c1c24bcc8c61e51bd"}, {"name": "\u70b9\u90fd\u5fb7(\u548c\u5174\u697c\u5e97)", "location": {"lat": 23.151479, "lng": 113.333464}, "address": "\u5e7f\u5dde\u5e02\u5929\u6cb3\u533a\u6797\u548c\u4e2d\u8def148\u53f7", "province": "\u5e7f\u4e1c\u7701", "city": "\u5e7f\u5dde\u5e02", "area": "\u5929\u6cb3\u533a", "street_id": "c66875066d77e1989ff7796b", "telephone": "(020)87573586,18802040195", "detail": 1, "uid": "c66875066d77e1989ff7796b"}, {"name": "\u70b9\u90fd\u5fb7(\u76d8\u798f\u697c\u5e97)", "location": {"lat": 23.139979, "lng": 113.265983}, "address": "\u5e7f\u5dde\u5e02\u8d8a\u79c0\u533a\u76d8\u798f\u8def22\u53f7\u6cf0\u5cf0\u5927\u53a6\u4e8c\u697c", "province": "\u5e7f\u4e1c\u7701", "city": "\u5e7f\u5dde\u5e02", "area": "\u8d8a\u79c0\u533a", "street_id": "4d77c43d22dcec196140a95b", "telephone": "(020)83064428,19802019661", "detail": 1, "uid": "4d77c43d22dcec196140a95b"}, {"name": "\u70b9\u90fd\u5fb7(\u51e4\u51f0\u697c\u5e97)", "location": {"lat": 23.094121, "lng": 113.297132}, "address": "\u6d77\u73e0\u533a\u65b0\u6e2f\u897f\u8def82\u53f7\u5e7f\u5dde\u8f7b\u7eba\u4ea4\u6613\u56edC\u533aC4\u680b2\u5c42", "province": "\u5e7f\u4e1c\u7701", "city": "\u5e7f\u5dde\u5e02", "area": "\u6d77\u73e0\u533a", "street_id": "adf1ab2fbe62ee8c02ff2d19", "telephone": "(020)89986881,15322262498", "detail": 1, "uid": "adf1ab2fbe62ee8c02ff2d19"}, {"name": "\u70b9\u90fd\u80dc\u8336\u697c", "location": {"lat": 23.22538, "lng": 113.275651}, "address": "\u5e7f\u4e1c\u7701\u5e7f\u5dde\u5e02\u767d\u4e91\u533a\u9e64\u5317\u4e1c\u88574\u53f7", "province": "\u5e7f\u4e1c\u7701", "city": "\u5e7f\u5dde\u5e02", "area": "\u767d\u4e91\u533a", "telephone": "(020)31239352", "detail": 1, "uid": "211c062dfc73ace98bfc06aa"}, {"name": "\u70b9\u90fd\u9753", "location": {"lat": 23.129955, "lng": 113.299369}, "address": "\u5e7f\u4e1c\u7701\u5e7f\u5dde\u5e02\u8d8a\u79c0\u533a\u767e\u5b50\u6a2a\u8def14\u53f7\u9644\u8fd1", "province": "\u5e7f\u4e1c\u7701", "city": "\u5e7f\u5dde\u5e02", "area": "\u8d8a\u79c0\u533a", "detail": 1, "uid": "d6ee6d0e73ae21327c29bd06"}, {"name": "\u6765\u7535(\u70b9\u90fd\u5fb7\u6d41\u82b1\u5e97)", "location": {"lat": 23.147875, "lng": 113.264772}, "address": "\u6d41\u82b1\u8def117\u53f7\u5185\u81ea\u7f161\u53f7\u6d41\u82b1\u5c55\u8d38\u4e2d\u5fc31\u53f7\u99863\u5c42", "province": "\u5e7f\u4e1c\u7701", "city": "\u5e7f\u5dde\u5e02", "area": "\u8d8a\u79c0\u533a", "detail": 1, "uid": "b0c313ff52414eba892fb5ac"}, {"name": "\u6765\u7535(\u70b9\u90fd\u5fb7\u957f\u9686\u5e97)", "location": {"lat": 23.000818, "lng": 113.340032}, "address": "\u6c49\u6eaa\u5927\u9053\u4e1c290\u53f7\u65f6\u4ee3E-PARK\u5546\u52a1\u4e2d\u5fc32\u5c42", "province": "\u5e7f\u4e1c\u7701", "city": "\u5e7f\u5dde\u5e02", "area": "\u756a\u79ba\u533a", "detail": 1, "uid": "5fc7e869dfed4c5dcac3db93"}, {"name": "\u6765\u7535(\u70b9\u90fd\u5fb7\u5fb7\u5b9d\u697c\u5e97)", "location": {"lat": 23.130154, "lng": 113.284915}, "address": "\u8d8a\u79c0\u4e2d\u8def60\u53f7\u5b9d\u8d1d\u57ce4\u5c42", "province": "\u5e7f\u4e1c\u7701", "city": "\u5e7f\u5dde\u5e02", "area": "\u8d8a\u79c0\u533a", "detail": 1, "uid": "ddacd6ad741c7d27f8dc8558"}, {"name": "\u6765\u7535(\u70b9\u90fd\u5fb7\u6c47\u80dc\u697c)", "location": {"lat": 23.139759, "lng": 113.346003}, "address": "\u5929\u6cb3\u8def598\u53f7\u767e\u8111\u6c47\u5927\u53a64\u5c42(\u5c97\u9876\u5730\u94c1\u7ad9C\u51fa\u53e3)", "province": "\u5e7f\u4e1c\u7701", "city": "\u5e7f\u5dde\u5e02", "area": "\u5929\u6cb3\u533a", "detail": 1, "uid": "f9f4e106385c071615c8f6ef"}, {"name": "\u6765\u7535(\u70b9\u90fd\u5fb7\u76d8\u798f\u697c\u5e97)", "location": {"lat": 23.140066, "lng": 113.266079}, "address": "\u76d8\u798f\u8def22\u53f7\u6cf0\u5cf0\u5927\u53a61\u5c42", "province": "\u5e7f\u4e1c\u7701", "city": "\u5e7f\u5dde\u5e02", "area": "\u8d8a\u79c0\u533a", "detail": 1, "uid": "35770c9e838d612d704b8753"}, {"name": "\u70b9\u90fd\u5fb7\u4ed3\u5e93", "location": {"lat": 23.050068, "lng": 113.219703}, "address": "\u6d77\u9f99\u8def3\u53f7", "province": "\u5e7f\u4e1c\u7701", "city": "\u5e7f\u5dde\u5e02", "area": "\u8354\u6e7e\u533a", "detail": 1, "uid": "af2cd7bfa5e5579a9ee3214d"},{"name": "\u9ede\u90fd\u5fb7(\u8354\u7ea2\u697c\u5e97)", "location": {"lat": 23.12372, "lng": 113.237874}, "address": "\u5e7f\u4e1c\u7701\u5e7f\u5dde\u5e02\u8354\u6e7e\u533a\u9ec4\u6c99\u5927\u9053144\u53f7", "province": "\u5e7f\u4e1c\u7701", "city": "\u5e7f\u5dde\u5e02", "area": "\u8354\u6e7e\u533a", "street_id": "2b730b48b9adb0f54002453d", "telephone": "19866062889", "detail": 1, "uid": "2b730b48b9adb0f54002453d"}, {"name": "\u70b9\u90fd\u5fb7(\u91d1\u6ee1\u697c)", "location": {"lat": 23.206295, "lng": 113.249196}, "address": "\u5e7f\u5dde\u5e02\u767d\u4e91\u533a\u77f3\u69ce\u8def32\u53f7B\u680b301\u623f", "province": "\u5e7f\u4e1c\u7701", "city": "\u5e7f\u5dde\u5e02", "area": "\u767d\u4e91\u533a", "street_id": "edd4ef9d2d52b81f1ce999b6", "telephone": "(020)36677061", "detail": 1, "uid": "edd4ef9d2d52b81f1ce999b6"}, {"name": "\u70b9\u90fd\u5fb7(\u5317\u4eac\u8def\u5e97)", "location": {"lat": 23.133003, "lng": 113.27529}, "address": "\u5e7f\u4e1c\u7701\u5e7f\u5dde\u5e02\u8d8a\u79c0\u533a\u5317\u4eac\u8def352\u53f7", "province": "\u5e7f\u4e1c\u7701", "city": "\u5e7f\u5dde\u5e02", "area": "\u8d8a\u79c0\u533a", "telephone": "(020)83522927", "detail": 1, "uid": "9e003c90ce6360f73f9a5eaf"}, {"name": "\u70b9\u90fd\u5fb7(\u5927\u8336\u697c\u5e97)", "location": {"lat": 23.129399, "lng": 113.252789}, "address": "\u5e7f\u5dde\u5e02\u8354\u6e7e\u533a\u9f99\u6d25\u4e2d\u8def587\u53f7", "province": "\u5e7f\u4e1c\u7701", "city": "\u5e7f\u5dde\u5e02", "area": "\u8354\u6e7e\u533a", "street_id": "4fce73a5a8d8f57b5b1093d2", "telephone": "(020)81700813,18818398903", "detail": 1, "uid": "4fce73a5a8d8f57b5b1093d2"}, {"name": "\u70b9\u90fd\u5fb7(\u6865\u9a8f\u548c\u697c\u5e97)", "location": {"lat": 22.956298, "lng": 113.366901}, "address": "\u5e7f\u5dde\u5e02\u756a\u79ba\u533a\u5e02\u6865\u8857\u6377\u8fdb\u4e8c\u8def1\u53f7\u4e09\u697c", "province": "\u5e7f\u4e1c\u7701", "city": "\u5e7f\u5dde\u5e02", "area": "\u756a\u79ba\u533a", "street_id": "5af7bc8ca4e81b758f55ec70", "telephone": "(020)31147068,13662526193", "detail": 1, "uid": "5af7bc8ca4e81b758f55ec70"}, {"name": "\u70b9\u90fd\u5fb7(\u4e2d\u5c71\u56db\u8def\u5e97)", "location": {"lat": 23.132563, "lng": 113.277738}, "address": "\u5e7f\u4e1c\u7701\u5e7f\u5dde\u5e02\u8d8a\u79c0\u533a\u4e2d\u5c71\u56db\u8def246\u53f7", "province": "\u5e7f\u4e1c\u7701", "city": "\u5e7f\u5dde\u5e02", "area": "\u8d8a\u79c0\u533a", "street_id": "85ccb694fa53c244b7265539", "telephone": "(020)87708336", "detail": 1, "uid": "85ccb694fa53c244b7265539"}, {"name": "\u70b9\u90fd\u5fb7(\u559c\u7ca4\u697c\u5e97)", "location": {"lat": 23.133694, "lng": 113.314745}, "address": "\u5e7f\u5dde\u5e02\u8d8a\u79c0\u533a\u4e2d\u5c71\u4e00\u8def\u4e0e\u6885\u4e1c\u8def\u4ea4\u53c9\u8def\u53e3\u4e1c\u4fa7(\u5357\u65b9\u94c1\u9053\u5927\u53a6)", "province": "\u5e7f\u4e1c\u7701", "city": "\u5e7f\u5dde\u5e02", "area": "\u8d8a\u79c0\u533a", "street_id": "130c1ac1f43189cc4c3a596a", "telephone": "(020)87380723,17875576720", "detail": 1, "uid": "130c1ac1f43189cc4c3a596a"}, {"name": "\u70b9\u90fd\u5fb7(\u91d1\u6c99\u6d32\u5e97)", "location": {"lat": 23.160905, "lng": 113.218314}, "address": "\u5e7f\u4e1c\u7701\u5e7f\u5dde\u5e02\u767d\u4e91\u533a\u76c8\u6c34\u88571\u53f7(\u91d1\u57df\u84dd\u6e7e\u4e1c\u95e8)", "province": "\u5e7f\u4e1c\u7701", "city": "\u5e7f\u5dde\u5e02", "area": "\u767d\u4e91\u533a", "telephone": "18802013589,(020)87028101", "detail": 1, "uid": "10245bf63ebb55abb75f1e29"}, {"name": "\u70b9\u90fd\u5fb7(\u805a\u798f\u697c\u5e97)", "location": {"lat": 23.126723, "lng": 113.271832}, "address": "\u5e7f\u5dde\u5e02\u8d8a\u79c0\u533a\u60e0\u798f\u4e1c\u8def470\u53f7", "province": "\u5e7f\u4e1c\u7701", "city": "\u5e7f\u5dde\u5e02", "area": "\u8d8a\u79c0\u533a", "street_id": "c3cd388c1c24bcc8c61e51bd", "telephone": "13632423292", "detail": 1, "uid": "c3cd388c1c24bcc8c61e51bd"}, {"name": "\u70b9\u90fd\u5fb7(\u548c\u5174\u697c\u5e97)", "location": {"lat": 23.151479, "lng": 113.333464}, "address": "\u5e7f\u5dde\u5e02\u5929\u6cb3\u533a\u6797\u548c\u4e2d\u8def148\u53f7", "province": "\u5e7f\u4e1c\u7701", "city": "\u5e7f\u5dde\u5e02", "area": "\u5929\u6cb3\u533a", "street_id": "c66875066d77e1989ff7796b", "telephone": "(020)87573586,18802040195", "detail": 1, "uid": "c66875066d77e1989ff7796b"}, {"name": "\u70b9\u90fd\u5fb7(\u76d8\u798f\u697c\u5e97)", "location": {"lat": 23.139979, "lng": 113.265983}, "address": "\u5e7f\u5dde\u5e02\u8d8a\u79c0\u533a\u76d8\u798f\u8def22\u53f7\u6cf0\u5cf0\u5927\u53a6\u4e8c\u697c", "province": "\u5e7f\u4e1c\u7701", "city": "\u5e7f\u5dde\u5e02", "area": "\u8d8a\u79c0\u533a", "street_id": "4d77c43d22dcec196140a95b", "telephone": "(020)83064428,19802019661", "detail": 1, "uid": "4d77c43d22dcec196140a95b"}, {"name": "\u70b9\u90fd\u5fb7(\u51e4\u51f0\u697c\u5e97)", "location": {"lat": 23.094121, "lng": 113.297132}, "address": "\u6d77\u73e0\u533a\u65b0\u6e2f\u897f\u8def82\u53f7\u5e7f\u5dde\u8f7b\u7eba\u4ea4\u6613\u56edC\u533aC4\u680b2\u5c42", "province": "\u5e7f\u4e1c\u7701", "city": "\u5e7f\u5dde\u5e02", "area": "\u6d77\u73e0\u533a", "street_id": "adf1ab2fbe62ee8c02ff2d19", "telephone": "(020)89986881,15322262498", "detail": 1, "uid": "adf1ab2fbe62ee8c02ff2d19"}, {"name": "\u70b9\u90fd\u80dc\u8336\u697c", "location": {"lat": 23.22538, "lng": 113.275651}, "address": "\u5e7f\u4e1c\u7701\u5e7f\u5dde\u5e02\u767d\u4e91\u533a\u9e64\u5317\u4e1c\u88574\u53f7", "province": "\u5e7f\u4e1c\u7701", "city": "\u5e7f\u5dde\u5e02", "area": "\u767d\u4e91\u533a", "telephone": "(020)31239352", "detail": 1, "uid": "211c062dfc73ace98bfc06aa"}, {"name": "\u70b9\u90fd\u9753", "location": {"lat": 23.129955, "lng": 113.299369}, "address": "\u5e7f\u4e1c\u7701\u5e7f\u5dde\u5e02\u8d8a\u79c0\u533a\u767e\u5b50\u6a2a\u8def14\u53f7\u9644\u8fd1", "province": "\u5e7f\u4e1c\u7701", "city": "\u5e7f\u5dde\u5e02", "area": "\u8d8a\u79c0\u533a", "detail": 1, "uid": "d6ee6d0e73ae21327c29bd06"}, {"name": "\u6765\u7535(\u70b9\u90fd\u5fb7\u6d41\u82b1\u5e97)", "location": {"lat": 23.147875, "lng": 113.264772}, "address": "\u6d41\u82b1\u8def117\u53f7\u5185\u81ea\u7f161\u53f7\u6d41\u82b1\u5c55\u8d38\u4e2d\u5fc31\u53f7\u99863\u5c42", "province": "\u5e7f\u4e1c\u7701", "city": "\u5e7f\u5dde\u5e02", "area": "\u8d8a\u79c0\u533a", "detail": 1, "uid": "b0c313ff52414eba892fb5ac"}, {"name": "\u6765\u7535(\u70b9\u90fd\u5fb7\u957f\u9686\u5e97)", "location": {"lat": 23.000818, "lng": 113.340032}, "address": "\u6c49\u6eaa\u5927\u9053\u4e1c290\u53f7\u65f6\u4ee3E-PARK\u5546\u52a1\u4e2d\u5fc32\u5c42", "province": "\u5e7f\u4e1c\u7701", "city": "\u5e7f\u5dde\u5e02", "area": "\u756a\u79ba\u533a", "detail": 1, "uid": "5fc7e869dfed4c5dcac3db93"}, {"name": "\u6765\u7535(\u70b9\u90fd\u5fb7\u5fb7\u5b9d\u697c\u5e97)", "location": {"lat": 23.130154, "lng": 113.284915}, "address": "\u8d8a\u79c0\u4e2d\u8def60\u53f7\u5b9d\u8d1d\u57ce4\u5c42", "province": "\u5e7f\u4e1c\u7701", "city": "\u5e7f\u5dde\u5e02", "area": "\u8d8a\u79c0\u533a", "detail": 1, "uid": "ddacd6ad741c7d27f8dc8558"}, {"name": "\u6765\u7535(\u70b9\u90fd\u5fb7\u6c47\u80dc\u697c)", "location": {"lat": 23.139759, "lng": 113.346003}, "address": "\u5929\u6cb3\u8def598\u53f7\u767e\u8111\u6c47\u5927\u53a64\u5c42(\u5c97\u9876\u5730\u94c1\u7ad9C\u51fa\u53e3)", "province": "\u5e7f\u4e1c\u7701", "city": "\u5e7f\u5dde\u5e02", "area": "\u5929\u6cb3\u533a", "detail": 1, "uid": "f9f4e106385c071615c8f6ef"}, {"name": "\u6765\u7535(\u70b9\u90fd\u5fb7\u76d8\u798f\u697c\u5e97)", "location": {"lat": 23.140066, "lng": 113.266079}, "address": "\u76d8\u798f\u8def22\u53f7\u6cf0\u5cf0\u5927\u53a61\u5c42", "province": "\u5e7f\u4e1c\u7701", "city": "\u5e7f\u5dde\u5e02", "area": "\u8d8a\u79c0\u533a", "detail": 1, "uid": "35770c9e838d612d704b8753"}, {"name": "\u70b9\u90fd\u5fb7\u4ed3\u5e93", "location": {"lat": 23.050068, "lng": 113.219703}, "address": "\u6d77\u9f99\u8def3\u53f7", "province": "\u5e7f\u4e1c\u7701", "city": "\u5e7f\u5dde\u5e02", "area": "\u8354\u6e7e\u533a", "detail": 1, "uid": "af2cd7bfa5e5579a9ee3214d"},{"name": "\u9ede\u90fd\u5fb7(\u8354\u7ea2\u697c\u5e97)", "location": {"lat": 23.12372, "lng": 113.237874}, "address": "\u5e7f\u4e1c\u7701\u5e7f\u5dde\u5e02\u8354\u6e7e\u533a\u9ec4\u6c99\u5927\u9053144\u53f7", "province": "\u5e7f\u4e1c\u7701", "city": "\u5e7f\u5dde\u5e02", "area": "\u8354\u6e7e\u533a", "street_id": "2b730b48b9adb0f54002453d", "telephone": "19866062889", "detail": 1, "uid": "2b730b48b9adb0f54002453d"}, {"name": "\u70b9\u90fd\u5fb7(\u91d1\u6ee1\u697c)", "location": {"lat": 23.206295, "lng": 113.249196}, "address": "\u5e7f\u5dde\u5e02\u767d\u4e91\u533a\u77f3\u69ce\u8def32\u53f7B\u680b301\u623f", "province": "\u5e7f\u4e1c\u7701", "city": "\u5e7f\u5dde\u5e02", "area": "\u767d\u4e91\u533a", "street_id": "edd4ef9d2d52b81f1ce999b6", "telephone": "(020)36677061", "detail": 1, "uid": "edd4ef9d2d52b81f1ce999b6"}, {"name": "\u70b9\u90fd\u5fb7(\u5317\u4eac\u8def\u5e97)", "location": {"lat": 23.133003, "lng": 113.27529}, "address": "\u5e7f\u4e1c\u7701\u5e7f\u5dde\u5e02\u8d8a\u79c0\u533a\u5317\u4eac\u8def352\u53f7", "province": "\u5e7f\u4e1c\u7701", "city": "\u5e7f\u5dde\u5e02", "area": "\u8d8a\u79c0\u533a", "telephone": "(020)83522927", "detail": 1, "uid": "9e003c90ce6360f73f9a5eaf"}, {"name": "\u70b9\u90fd\u5fb7(\u5927\u8336\u697c\u5e97)", "location": {"lat": 23.129399, "lng": 113.252789}, "address": "\u5e7f\u5dde\u5e02\u8354\u6e7e\u533a\u9f99\u6d25\u4e2d\u8def587\u53f7", "province": "\u5e7f\u4e1c\u7701", "city": "\u5e7f\u5dde\u5e02", "area": "\u8354\u6e7e\u533a", "street_id": "4fce73a5a8d8f57b5b1093d2", "telephone": "(020)81700813,18818398903", "detail": 1, "uid": "4fce73a5a8d8f57b5b1093d2"}, {"name": "\u70b9\u90fd\u5fb7(\u6865\u9a8f\u548c\u697c\u5e97)", "location": {"lat": 22.956298, "lng": 113.366901}, "address": "\u5e7f\u5dde\u5e02\u756a\u79ba\u533a\u5e02\u6865\u8857\u6377\u8fdb\u4e8c\u8def1\u53f7\u4e09\u697c", "province": "\u5e7f\u4e1c\u7701", "city": "\u5e7f\u5dde\u5e02", "area": "\u756a\u79ba\u533a", "street_id": "5af7bc8ca4e81b758f55ec70", "telephone": "(020)31147068,13662526193", "detail": 1, "uid": "5af7bc8ca4e81b758f55ec70"}, {"name": "\u70b9\u90fd\u5fb7(\u4e2d\u5c71\u56db\u8def\u5e97)", "location": {"lat": 23.132563, "lng": 113.277738}, "address": "\u5e7f\u4e1c\u7701\u5e7f\u5dde\u5e02\u8d8a\u79c0\u533a\u4e2d\u5c71\u56db\u8def246\u53f7", "province": "\u5e7f\u4e1c\u7701", "city": "\u5e7f\u5dde\u5e02", "area": "\u8d8a\u79c0\u533a", "street_id": "85ccb694fa53c244b7265539", "telephone": "(020)87708336", "detail": 1, "uid": "85ccb694fa53c244b7265539"}, {"name": "\u70b9\u90fd\u5fb7(\u559c\u7ca4\u697c\u5e97)", "location": {"lat": 23.133694, "lng": 113.314745}, "address": "\u5e7f\u5dde\u5e02\u8d8a\u79c0\u533a\u4e2d\u5c71\u4e00\u8def\u4e0e\u6885\u4e1c\u8def\u4ea4\u53c9\u8def\u53e3\u4e1c\u4fa7(\u5357\u65b9\u94c1\u9053\u5927\u53a6)", "province": "\u5e7f\u4e1c\u7701", "city": "\u5e7f\u5dde\u5e02", "area": "\u8d8a\u79c0\u533a", "street_id": "130c1ac1f43189cc4c3a596a", "telephone": "(020)87380723,17875576720", "detail": 1, "uid": "130c1ac1f43189cc4c3a596a"}, {"name": "\u70b9\u90fd\u5fb7(\u91d1\u6c99\u6d32\u5e97)", "location": {"lat": 23.160905, "lng": 113.218314}, "address": "\u5e7f\u4e1c\u7701\u5e7f\u5dde\u5e02\u767d\u4e91\u533a\u76c8\u6c34\u88571\u53f7(\u91d1\u57df\u84dd\u6e7e\u4e1c\u95e8)", "province": "\u5e7f\u4e1c\u7701", "city": "\u5e7f\u5dde\u5e02", "area": "\u767d\u4e91\u533a", "telephone": "18802013589,(020)87028101", "detail": 1, "uid": "10245bf63ebb55abb75f1e29"}, {"name": "\u70b9\u90fd\u5fb7(\u805a\u798f\u697c\u5e97)", "location": {"lat": 23.126723, "lng": 113.271832}, "address": "\u5e7f\u5dde\u5e02\u8d8a\u79c0\u533a\u60e0\u798f\u4e1c\u8def470\u53f7", "province": "\u5e7f\u4e1c\u7701", "city": "\u5e7f\u5dde\u5e02", "area": "\u8d8a\u79c0\u533a", "street_id": "c3cd388c1c24bcc8c61e51bd", "telephone": "13632423292", "detail": 1, "uid": "c3cd388c1c24bcc8c61e51bd"}, {"name": "\u70b9\u90fd\u5fb7(\u548c\u5174\u697c\u5e97)", "location": {"lat": 23.151479, "lng": 113.333464}, "address": "\u5e7f\u5dde\u5e02\u5929\u6cb3\u533a\u6797\u548c\u4e2d\u8def148\u53f7", "province": "\u5e7f\u4e1c\u7701", "city": "\u5e7f\u5dde\u5e02", "area": "\u5929\u6cb3\u533a", "street_id": "c66875066d77e1989ff7796b", "telephone": "(020)87573586,18802040195", "detail": 1, "uid": "c66875066d77e1989ff7796b"}, {"name": "\u70b9\u90fd\u5fb7(\u76d8\u798f\u697c\u5e97)", "location": {"lat": 23.139979, "lng": 113.265983}, "address": "\u5e7f\u5dde\u5e02\u8d8a\u79c0\u533a\u76d8\u798f\u8def22\u53f7\u6cf0\u5cf0\u5927\u53a6\u4e8c\u697c", "province": "\u5e7f\u4e1c\u7701", "city": "\u5e7f\u5dde\u5e02", "area": "\u8d8a\u79c0\u533a", "street_id": "4d77c43d22dcec196140a95b", "telephone": "(020)83064428,19802019661", "detail": 1, "uid": "4d77c43d22dcec196140a95b"}, {"name": "\u70b9\u90fd\u5fb7(\u51e4\u51f0\u697c\u5e97)", "location": {"lat": 23.094121, "lng": 113.297132}, "address": "\u6d77\u73e0\u533a\u65b0\u6e2f\u897f\u8def82\u53f7\u5e7f\u5dde\u8f7b\u7eba\u4ea4\u6613\u56edC\u533aC4\u680b2\u5c42", "province": "\u5e7f\u4e1c\u7701", "city": "\u5e7f\u5dde\u5e02", "area": "\u6d77\u73e0\u533a", "street_id": "adf1ab2fbe62ee8c02ff2d19", "telephone": "(020)89986881,15322262498", "detail": 1, "uid": "adf1ab2fbe62ee8c02ff2d19"}, {"name": "\u70b9\u90fd\u80dc\u8336\u697c", "location": {"lat": 23.22538, "lng": 113.275651}, "address": "\u5e7f\u4e1c\u7701\u5e7f\u5dde\u5e02\u767d\u4e91\u533a\u9e64\u5317\u4e1c\u88574\u53f7", "province": "\u5e7f\u4e1c\u7701", "city": "\u5e7f\u5dde\u5e02", "area": "\u767d\u4e91\u533a", "telephone": "(020)31239352", "detail": 1, "uid": "211c062dfc73ace98bfc06aa"}, {"name": "\u70b9\u90fd\u9753", "location": {"lat": 23.129955, "lng": 113.299369}, "address": "\u5e7f\u4e1c\u7701\u5e7f\u5dde\u5e02\u8d8a\u79c0\u533a\u767e\u5b50\u6a2a\u8def14\u53f7\u9644\u8fd1", "province": "\u5e7f\u4e1c\u7701", "city": "\u5e7f\u5dde\u5e02", "area": "\u8d8a\u79c0\u533a", "detail": 1, "uid": "d6ee6d0e73ae21327c29bd06"}, {"name": "\u6765\u7535(\u70b9\u90fd\u5fb7\u6d41\u82b1\u5e97)", "location": {"lat": 23.147875, "lng": 113.264772}, "address": "\u6d41\u82b1\u8def117\u53f7\u5185\u81ea\u7f161\u53f7\u6d41\u82b1\u5c55\u8d38\u4e2d\u5fc31\u53f7\u99863\u5c42", "province": "\u5e7f\u4e1c\u7701", "city": "\u5e7f\u5dde\u5e02", "area": "\u8d8a\u79c0\u533a", "detail": 1, "uid": "b0c313ff52414eba892fb5ac"}, {"name": "\u6765\u7535(\u70b9\u90fd\u5fb7\u957f\u9686\u5e97)", "location": {"lat": 23.000818, "lng": 113.340032}, "address": "\u6c49\u6eaa\u5927\u9053\u4e1c290\u53f7\u65f6\u4ee3E-PARK\u5546\u52a1\u4e2d\u5fc32\u5c42", "province": "\u5e7f\u4e1c\u7701", "city": "\u5e7f\u5dde\u5e02", "area": "\u756a\u79ba\u533a", "detail": 1, "uid": "5fc7e869dfed4c5dcac3db93"}, {"name": "\u6765\u7535(\u70b9\u90fd\u5fb7\u5fb7\u5b9d\u697c\u5e97)", "location": {"lat": 23.130154, "lng": 113.284915}, "address": "\u8d8a\u79c0\u4e2d\u8def60\u53f7\u5b9d\u8d1d\u57ce4\u5c42", "province": "\u5e7f\u4e1c\u7701", "city": "\u5e7f\u5dde\u5e02", "area": "\u8d8a\u79c0\u533a", "detail": 1, "uid": "ddacd6ad741c7d27f8dc8558"}, {"name": "\u6765\u7535(\u70b9\u90fd\u5fb7\u6c47\u80dc\u697c)", "location": {"lat": 23.139759, "lng": 113.346003}, "address": "\u5929\u6cb3\u8def598\u53f7\u767e\u8111\u6c47\u5927\u53a64\u5c42(\u5c97\u9876\u5730\u94c1\u7ad9C\u51fa\u53e3)", "province": "\u5e7f\u4e1c\u7701", "city": "\u5e7f\u5dde\u5e02", "area": "\u5929\u6cb3\u533a", "detail": 1, "uid": "f9f4e106385c071615c8f6ef"}, {"name": "\u6765\u7535(\u70b9\u90fd\u5fb7\u76d8\u798f\u697c\u5e97)", "location": {"lat": 23.140066, "lng": 113.266079}, "address": "\u76d8\u798f\u8def22\u53f7\u6cf0\u5cf0\u5927\u53a61\u5c42", "province": "\u5e7f\u4e1c\u7701", "city": "\u5e7f\u5dde\u5e02", "area": "\u8d8a\u79c0\u533a", "detail": 1, "uid": "35770c9e838d612d704b8753"}, {"name": "\u70b9\u90fd\u5fb7\u4ed3\u5e93", "location": {"lat": 23.050068, "lng": 113.219703}, "address": "\u6d77\u9f99\u8def3\u53f7", "province": "\u5e7f\u4e1c\u7701", "city": "\u5e7f\u5dde\u5e02", "area": "\u8354\u6e7e\u533a", "detail": 1, "uid": "af2cd7bfa5e5579a9ee3214d"}]